countries:
  - name: "Poland"
    code: "PL"
    cities:
      - name: "Warsaw"
        lat: 52.2297
        lng: 21.0122
      - name: "Krakow"
        lat: 50.0647
        lng: 19.9450
      - name: "Wroclaw"
        lat: 51.1079
        lng: 17.0385
      - name: "Gdansk"
        lat: 54.3520
        lng: 18.6466
      - name: "Poznan"
        lat: 52.4064
        lng: 16.9252

  - name: "Germany"
    code: "DE"
    cities:
      - name: "Berlin"
        lat: 52.5200
        lng: 13.4050
      - name: "Munich"
        lat: 48.1351
        lng: 11.5820
      - name: "Hamburg"
        lat: 53.5511
        lng: 9.9937
      - name: "Frankfurt"
        lat: 50.1109
        lng: 8.6821

  - name: "United Kingdom"
    code: "GB"
    cities:
      - name: "London"
        lat: 51.5074
        lng: -0.1278
      - name: "Edinburgh"
        lat: 55.9533
        lng: -3.1883

  - name: "France"
    code: "FR"
    cities:
      - name: "Paris"
        lat: 48.8566
        lng: 2.3522
      - name: "Lyon"
        lat: 45.7640
        lng: 4.8357
      - name: "Nice"
        lat: 43.7102
        lng: 7.2620

  - name: "Netherlands"
    code: "NL"
    cities:
      - name: "Amsterdam"
        lat: 52.3676
        lng: 4.9041

  - name: "Czech Republic"
    code: "CZ"
    cities:
      - name: "Prague"
        lat: 50.0755
        lng: 14.4378
      - name: "Brno"
        lat: 49.1951
        lng: 16.6068

  - name: "Austria"
    code: "AT"
    cities:
      - name: "Vienna"
        lat: 48.2082
        lng: 16.3738
      - name: "Salzburg"
        lat: 47.8095
        lng: 13.0550

  - name: "Italy"
    code: "IT"
    cities:
      - name: "Rome"
        lat: 41.9028
        lng: 12.4964
      - name: "Florence"
        lat: 43.7696
        lng: 11.2558
      - name: "Venice"
        lat: 45.4408
        lng: 12.3155
      - name: "Milan"
        lat: 45.4642
        lng: 9.1900

  - name: "Spain"
    code: "ES"
    cities:
      - name: "Barcelona"
        lat: 41.3851
        lng: 2.1734
      - name: "Madrid"
        lat: 40.4168
        lng: -3.7038

  - name: "Portugal"
    code: "PT"
    cities:
      - name: "Lisbon"
        lat: 38.7223
        lng: -9.1393
      - name: "Porto"
        lat: 41.1579
        lng: -8.6291

  - name: "United States"
    code: "US"
    cities:
      - name: "New York"
        lat: 40.7128
        lng: -74.0060
      - name: "San Francisco"
        lat: 37.7749
        lng: -122.4194
      - name: "Chicago"
        lat: 41.8781
        lng: -87.6298
      - name: "Los Angeles"
        lat: 34.0522
        lng: -118.2437

  - name: "Japan"
    code: "JP"
    cities:
      - name: "Tokyo"
        lat: 35.6762
        lng: 139.6503
      - name: "Kyoto"
        lat: 35.0116
        lng: 135.7681
      - name: "Osaka"
        lat: 34.6937
        lng: 135.5023

  - name: "Thailand"
    code: "TH"
    cities:
      - name: "Bangkok"
        lat: 13.7563
        lng: 100.5018
      - name: "Chiang Mai"
        lat: 18.7883
        lng: 98.9853

  - name: "Hungary"
    code: "HU"
    cities:
      - name: "Budapest"
        lat: 47.4979
        lng: 19.0402

  - name: "Greece"
    code: "GR"
    cities:
      - name: "Athens"
        lat: 37.9838
        lng: 23.7275
      - name: "Santorini"
        lat: 36.3932
        lng: 25.4615
